{"@id":"https://w3id.org/JoshVacations","type":"FeatureCollection","@context":"https://w3id.org/locolligo/contexts/linkedplaces.jsonld","features":[{"@id":"https://w3id.org/JoshVacations/28266115-b507-428b-905b-e9adf7cbef55","type":"Feature","properties":{"title":"Rome","country":"Italy"},"geometry":{"type":"Point","coordinates":[12.4964,41.9028]}},{"@id":"https://w3id.org/JoshVacations/3ff3eb74-dfa1-4d29-97d6-7949b76ac319","type":"Feature","properties":{"title":"Athens","country":"Greece"},"geometry":{"type":"Point","coordinates":[23.7275,37.9838]}},{"@id":"https://w3id.org/JoshVacations/3fcba57f-2f3a-42ff-ad54-81b6788f9210","type":"Feature","properties":{"title":"Mykonos","country":"Greece"},"geometry":{"type":"Point","coordinates":[25.3667,37.4415]}},{"@id":"https://w3id.org/JoshVacations/40ee945d-c3a6-4bde-a627-375ecdb35f51","type":"Feature","properties":{"title":"Milan","country":"Italy"},"geometry":{"type":"Point","coordinates":[9.19,45.4642]}},{"@id":"https://w3id.org/JoshVacations/0079ef17-beaf-4832-9b26-4b07d55235a7","type":"Feature","properties":{"title":"Madrid","country":"Spain"},"geometry":{"type":"Point","coordinates":[-3.7038,40.4168]}},{"@id":"https://w3id.org/JoshVacations/175f3974-2032-43a0-b240-ba0b5645eb2e","type":"Feature","properties":{"title":"Valencia","country":"Spain"},"geometry":{"type":"Point","coordinates":[-0.3763,39.4699]}},{"@id":"https://w3id.org/JoshVacations/caf6bbbf-2577-4021-8cbc-f198f3546847","type":"Feature","properties":{"title":"Segovia","country":"Spain"},"geometry":{"type":"Point","coordinates":[-4.1088,40.9429]}},{"@id":"https://w3id.org/JoshVacations/97bf4d57-33d0-486f-98c1-9f903e5c3f45","type":"Feature","properties":{"title":"Syracuse","country":"Italy"},"geometry":{"type":"Point","coordinates":[15.2866,37.0755]}},{"@id":"https://w3id.org/JoshVacations/4f184e94-a514-4cc4-aca2-c7176061b60a","type":"Feature","properties":{"title":"Orlando","country":"United States"},"geometry":{"type":"Point","coordinates":[-81.3789,28.5384]}},{"@id":"https://w3id.org/JoshVacations/c97e12f0-e8ef-47e6-80b0-f1b08c756fb5","type":"Feature","properties":{"title":"San Diego","country":"United States"},"geometry":{"type":"Point","coordinates":[-117.1611,32.7157]}},{"@id":"https://w3id.org/JoshVacations/8f68674d-a604-4a8c-a371-2a9727906436","type":"Feature","properties":{"title":"Ephesus","country":"Turkyie"},"geometry":{"type":"Point","coordinates":[27.2031,37.5628]}},{"@id":"https://w3id.org/JoshVacations/3a155577-7407-4ad2-9a17-c4cdcf1a83a5","type":"Feature","properties":{"title":"Delos","country":"Greece"},"geometry":{"type":"Point","coordinates":[25.2689,37.3963]}},{"@id":"https://w3id.org/JoshVacations/19629515-464c-48eb-a26f-ccb1b88d5be8","type":"Feature","properties":{"title":"Tulum","country":"Mexico"},"geometry":{"type":"Point","coordinates":[-87.4654,20.2114]}},{"@id":"https://w3id.org/JoshVacations/dd236e46-4152-4ba2-a762-1ac366fa5ce4","type":"Feature","properties":{"title":"Belize City","country":"Belize"},"geometry":{"type":"Point","coordinates":[-88.1962,17.5046]}},{"@id":"https://w3id.org/JoshVacations/c9fec3b5-2494-42ac-8cd8-51fa2f2ac525","type":"Feature","properties":{"title":"Palm Beach","country":"Aruba"},"geometry":{"type":"Point","coordinates":[-70.0461,12.5684]}},{"@id":"https://w3id.org/JoshVacations/944535c5-b987-4a46-8e9c-393d4208b017","type":"Feature","properties":{"title":"Hilton Head Island","country":"United States"},"geometry":{"type":"Point","coordinates":[-80.7526,32.2163]}},{"@id":"https://w3id.org/JoshVacations/c06138eb-eafd-41f1-94a0-9cc0f7c6786d","type":"Feature","properties":{"title":"Savannah","country":"United States"},"geometry":{"type":"Point","coordinates":[-81.0912,32.0809]}},{"@id":"https://w3id.org/JoshVacations/7eb1d032-73c2-43dd-ad73-2dfd29c10943","type":"Feature","properties":{"title":"Charleston","country":"United States"},"geometry":{"type":"Point","coordinates":[-79.9311,32.7765]}},{"@id":"https://w3id.org/JoshVacations/4848fc19-3750-465f-91cb-efd1d49b1abd","type":"Feature","properties":{"title":"Grand Cayman","country":"Cayman Islands"},"geometry":{"type":"Point","coordinates":[-81.2409,19.3222]}},{"@id":"https://w3id.org/JoshVacations/dad4b215-558b-4b6e-a3e8-57526fb28622","type":"Feature","properties":{"title":"Toldeo","country":"Spain"},"geometry":{"type":"Point","coordinates":[-4.0273,39.8628]}},{"@id":"https://w3id.org/JoshVacations/d19af032-d859-4d07-a4be-62f3636b3185","type":"Feature","properties":{"title":"Pompeii","country":"Italy"},"geometry":{"type":"Point","coordinates":[14.4989,40.7462]}},{"@id":"https://w3id.org/JoshVacations/29ea6544-c395-4590-b479-11f64bfdc87e","type":"Feature","properties":{"title":"Vatican City","country":"Vatican"},"geometry":{"type":"Point","coordinates":[12.4534,41.9029]}},{"@id":"https://w3id.org/JoshVacations/adebf93a-6a6f-4548-b7f9-35ba9d9dfb76","type":"Feature","properties":{"title":"Santorini","country":"Greece"},"geometry":{"type":"Point","coordinates":[25.4615,36.3932]}},{"@id":"https://w3id.org/JoshVacations/54bef82c-193b-461b-ade2-ee182c6d4e65","type":"Feature","properties":{"title":"Lake Como","country":"Italy"},"geometry":{"type":"Point","coordinates":[9.2572,46.016]}}],"indexing":{"@type":"Dataset","name":"JoshVacations","description":"","license":"https://creativecommons.org/licenses/by/4.0/","identifier":"https://w3id.org/JoshVacations","temporalCoverage":"1066/2022","spatialCoverage":{"@type":"GeoShape","box":"0.580101 0.00149 60.355 9.78667","geo":{"@type":"GeoShape","box":"12.5684 0.3763 46.016 117.1611"}}}}